[{"lat": 51.522888,
"lon": -0.157127,
"id": "940GZZLUBST",
"name": "Baker Street Underground Station"},
{"lat": 51.507415,
"lon": -0.127273,
"id": "940GZZLUCHX",
"name": "Charing Cross Underground Station"},
{"lat": 51.49454,
"lon": -0.100601,
"id": "940GZZLUEAC",
"name": "Elephant & Castle Underground Station"},
{"lat": 51.507062,
"lon": -0.122662,
"id": "940GZZLUEMB",
"name": "Embankment Underground Station"},
{"lat": 51.520304,
"lon": -0.170147,
"id": "940GZZLUERB",
"name": "Edgware Road (Bakerloo) Underground Station"},
{"lat": 51.592266,
"lon": -0.335219,
"id": "940GZZLUHAW",
"name": "Harrow & Wealdstone Underground Station"},
{"lat": 51.536316,
"lon": -0.257882,
"id": "940GZZLUHSN",
"name": "Harlesden Underground Station"},
{"lat": 51.581763,
"lon": -0.316911,
"id": "940GZZLUKEN",
"name": "Kenton Underground Station"},
{"lat": 51.534985,
"lon": -0.194229,
"id": "940GZZLUKPK",
"name": "Kilburn Park Underground Station"},
{"lat": 51.530544,
"lon": -0.225014,
"id": "940GZZLUKSL",
"name": "Kensal Green Underground Station"},
{"lat": 51.498812,
"lon": -0.11231,
"id": "940GZZLULBN",
"name": "Lambeth North Underground Station"},
{"lat": 51.529782,
"lon": -0.185756,
"id": "940GZZLUMVL",
"name": "Maida Vale Underground Station"},
{"lat": 51.522327,
"lon": -0.163204,
"id": "940GZZLUMYB",
"name": "Marylebone Underground Station"},
{"lat": 51.562558,
"lon": -0.304,
"id": "940GZZLUNWY",
"name": "North Wembley Underground Station"},
{"lat": 51.515228,
"lon": -0.141899,
"id": "940GZZLUOXC",
"name": "Oxford Circus Underground Station"},
{"lat": 51.516586,
"lon": -0.175686,
"id": "940GZZLUPAC",
"name": "Paddington Underground Station"},
{"lat": 51.510055,
"lon": -0.133794,
"id": "940GZZLUPCC",
"name": "Piccadilly Circus Underground Station"},
{"lat": 51.534163,
"lon": -0.204571,
"id": "940GZZLUQPS",
"name": "Queen's Park Underground Station"},
{"lat": 51.523349,
"lon": -0.146441,
"id": "940GZZLURGP",
"name": "Regent's Park Underground Station"},
{"lat": 51.543965,
"lon": -0.275891,
"id": "940GZZLUSGP",
"name": "Stonebridge Park Underground Station"},
{"lat": 51.570238,
"lon": -0.308433,
"id": "940GZZLUSKT",
"name": "South Kenton Underground Station"},
{"lat": 51.532264,
"lon": -0.244282,
"id": "940GZZLUWJN",
"name": "Willesden Junction Underground Station"},
{"lat": 51.523268,
"lon": -0.18378,
"id": "940GZZLUWKA",
"name": "Warwick Avenue Underground Station"},
{"lat": 51.503303,
"lon": -0.114776,
"id": "940GZZLUWLO",
"name": "Waterloo Underground Station"},
{"lat": 51.55231,
"lon": -0.296852,
"id": "940GZZLUWYC",
"name": "Wembley Central Underground Station"},
{"lat": 51.585695,
"lon": 0.088596,
"id": "940GZZLUBKE",
"name": "Barkingside Underground Station"},
{"lat": 51.626612,
"lon": 0.046767,
"id": "940GZZLUBKH",
"name": "Buckhurst Hill Underground Station"},
{"lat": 51.527227,
"lon": -0.0555,
"id": "940GZZLUBLG",
"name": "Bethnal Green Underground Station"},
{"lat": 51.514309,
"lon": -0.149719,
"id": "940GZZLUBND",
"name": "Bond Street Underground Station"},
{"lat": 51.513424,
"lon": -0.088948,
"id": "940GZZLUBNK",
"name": "Bank Underground Station"},
{"lat": 51.518251,
"lon": -0.111578,
"id": "940GZZLUCHL",
"name": "Chancery Lane Underground Station"},
{"lat": 51.617923,
"lon": 0.075051,
"id": "940GZZLUCWL",
"name": "Chigwell Underground Station"},
{"lat": 51.645394,
"lon": 0.083793,
"id": "940GZZLUDBN",
"name": "Debden Underground Station"},
{"lat": 51.516616,
"lon": -0.247248,
"id": "940GZZLUEAN",
"name": "East Acton Underground Station"},
{"lat": 51.515022,
"lon": -0.301457,
"id": "940GZZLUEBY",
"name": "Ealing Broadway Underground Station"},
{"lat": 51.693689,
"lon": 0.11378,
"id": "940GZZLUEPG",
"name": "Epping Underground Station"},
{"lat": 51.595625,
"lon": 0.091015,
"id": "940GZZLUFLP",
"name": "Fairlop Underground Station"},
{"lat": 51.54243,
"lon": -0.346052,
"id": "940GZZLUGFD",
"name": "Greenford Underground Station"},
{"lat": 51.613385,
"lon": 0.092077,
"id": "940GZZLUGGH",
"name": "Grange Hill Underground Station"},
{"lat": 51.57655,
"lon": 0.066195,
"id": "940GZZLUGTH",
"name": "Gants Hill Underground Station"},
{"lat": 51.517585,
"lon": -0.12047,
"id": "940GZZLUHBN",
"name": "Holborn Underground Station"},
{"lat": 51.530182,
"lon": -0.292704,
"id": "940GZZLUHGR",
"name": "Hanger Lane Underground Station"},
{"lat": 51.603665,
"lon": 0.093493,
"id": "940GZZLUHLT",
"name": "Hainault Underground Station"},
{"lat": 51.507148,
"lon": -0.205677,
"id": "940GZZLUHPK",
"name": "Holland Park Underground Station"},
{"lat": 51.641451,
"lon": 0.055486,
"id": "940GZZLULGN",
"name": "Loughton Underground Station"},
{"lat": 51.511727,
"lon": -0.175491,
"id": "940GZZLULGT",
"name": "Lancaster Gate Underground Station"},
{"lat": 51.517377,
"lon": -0.083176,
"id": "940GZZLULVT",
"name": "Liverpool Street Underground Station"},
{"lat": 51.556595,
"lon": -0.005515,
"id": "940GZZLULYN",
"name": "Leyton Underground Station"},
{"lat": 51.56833,
"lon": 0.008202,
"id": "940GZZLULYS",
"name": "Leytonstone Underground Station"},
{"lat": 51.513429,
"lon": -0.15895,
"id": "940GZZLUMBA",
"name": "Marble Arch Underground Station"},
{"lat": 51.525127,
"lon": -0.033633,
"id": "940GZZLUMED",
"name": "Mile End Underground Station"},
{"lat": 51.523529,
"lon": -0.259754,
"id": "940GZZLUNAN",
"name": "North Acton Underground Station"},
{"lat": 51.575732,
"lon": 0.090015,
"id": "940GZZLUNBP",
"name": "Newbury Park Underground Station"},
{"lat": 51.509132,
"lon": -0.196102,
"id": "940GZZLUNHG",
"name": "Notting Hill Gate Underground Station"},
{"lat": 51.548242,
"lon": -0.368702,
"id": "940GZZLUNHT",
"name": "Northolt Underground Station"},
{"lat": 51.536723,
"lon": -0.323447,
"id": "940GZZLUPVL",
"name": "Perivale Underground Station"},
{"lat": 51.510316,
"lon": -0.187149,
"id": "940GZZLUQWY",
"name": "Queensway Underground Station"},
{"lat": 51.576249,
"lon": 0.045369,
"id": "940GZZLURBG",
"name": "Redbridge Underground Station"},
{"lat": 51.560742,
"lon": -0.410699,
"id": "940GZZLURSG",
"name": "Ruislip Gardens Underground Station"},
{"lat": 51.617206,
"lon": 0.043657,
"id": "940GZZLURVY",
"name": "Roding Valley Underground Station"},
{"lat": 51.504381,
"lon": -0.218812,
"id": "940GZZLUSBC",
"name": "Shepherd's Bush (Central) Underground Station"},
{"lat": 51.580684,
"lon": 0.021449,
"id": "940GZZLUSNB",
"name": "Snaresbrook Underground Station"},
{"lat": 51.51494,
"lon": -0.097562,
"id": "940GZZLUSPU",
"name": "St. Paul's Underground Station"},
{"lat": 51.556859,
"lon": -0.398904,
"id": "940GZZLUSRP",
"name": "South Ruislip Underground Station"},
{"lat": 51.541811,
"lon": -0.00345,
"id": "940GZZLUSTD",
"name": "Stratford Underground Station"},
{"lat": 51.591913,
"lon": 0.027347,
"id": "940GZZLUSWF",
"name": "South Woodford Underground Station"},
{"lat": 51.516431,
"lon": -0.130406,
"id": "940GZZLUTCR",
"name": "Tottenham Court Road Underground Station"},
{"lat": 51.671768,
"lon": 0.103097,
"id": "940GZZLUTHB",
"name": "Theydon Bois Underground Station"},
{"lat": 51.511964,
"lon": -0.224295,
"id": "940GZZLUWCY",
"name": "White City Underground Station"},
{"lat": 51.606906,
"lon": 0.03398,
"id": "940GZZLUWOF",
"name": "Woodford Underground Station"},
{"lat": 51.569686,
"lon": -0.437875,
"id": "940GZZLUWRP",
"name": "West Ruislip Underground Station"},
{"lat": 51.575507,
"lon": 0.028537,
"id": "940GZZLUWSD",
"name": "Wanstead Underground Station"},
{"lat": 51.518006,
"lon": -0.28098,
"id": "940GZZLUWTA",
"name": "West Acton Underground Station"},
{"lat": 51.514251,
"lon": -0.075683,
"id": "940GZZLUALD",
"name": "Aldgate Underground Station"},
{"lat": 51.52028,
"lon": -0.097988,
"id": "940GZZLUBBN",
"name": "Barbican Underground Station"},
{"lat": 51.511586,
"lon": -0.103654,
"id": "940GZZLUBKF",
"name": "Blackfriars Underground Station"},
{"lat": 51.512289,
"lon": -0.187935,
"id": "940GZZLUBWT",
"name": "Bayswater Underground Station"},
{"lat": 51.511515,
"lon": -0.090426,
"id": "940GZZLUCST",
"name": "Cannon Street Underground Station"},
{"lat": 51.519863,
"lon": -0.167829,
"id": "940GZZLUERC",
"name": "Edgware Road (Circle Line) Underground Station"},
{"lat": 51.525609,
"lon": -0.135825,
"id": "940GZZLUESQ",
"name": "Euston Square Underground Station"},
{"lat": 51.520257,
"lon": -0.104908,
"id": "940GZZLUFCN",
"name": "Farringdon Underground Station"},
{"lat": 51.502009,
"lon": -0.226714,
"id": "940GZZLUGHK",
"name": "Goldhawk Road Underground Station"},
{"lat": 51.523845,
"lon": -0.144258,
"id": "940GZZLUGPS",
"name": "Great Portland Street Underground Station"},
{"lat": 51.494321,
"lon": -0.182655,
"id": "940GZZLUGTR",
"name": "Gloucester Road Underground Station"},
{"lat": 51.493176,
"lon": -0.224175,
"id": "940GZZLUHSC",
"name": "Hammersmith (H&C Line) Underground Station"},
{"lat": 51.50106,
"lon": -0.19279,
"id": "940GZZLUHSK",
"name": "High Street Kensington Underground Station"},
{"lat": 51.530668,
"lon": -0.12319,
"id": "940GZZLUKSX",
"name": "King's Cross St. Pancras Underground Station"},
{"lat": 51.517454,
"lon": -0.210389,
"id": "940GZZLULAD",
"name": "Ladbroke Grove Underground Station"},
{"lat": 51.513394,
"lon": -0.217797,
"id": "940GZZLULRD",
"name": "Latimer Road Underground Station"},
{"lat": 51.51818,
"lon": -0.088317,
"id": "940GZZLUMGT",
"name": "Moorgate Underground Station"},
{"lat": 51.510705,
"lon": -0.085964,
"id": "940GZZLUMMT",
"name": "Monument Underground Station"},
{"lat": 51.512122,
"lon": -0.094004,
"id": "940GZZLUMSH",
"name": "Mansion House Underground Station"},
{"lat": 51.518192,
"lon": -0.178303,
"id": "940GZZLUPAH",
"name": "Paddington (H&C Line)-Underground"},
{"lat": 51.519118,
"lon": -0.188745,
"id": "940GZZLURYO",
"name": "Royal Oak Underground Station"},
{"lat": 51.505583,
"lon": -0.226373,
"id": "940GZZLUSBM",
"name": "Shepherd's Bush Market Underground Station"},
{"lat": 51.499548,
"lon": -0.133604,
"id": "940GZZLUSJP",
"name": "St. James's Park Underground Station"},
{"lat": 51.494098,
"lon": -0.174135,
"id": "940GZZLUSKS",
"name": "South Kensington Underground Station"},
{"lat": 51.492274,
"lon": -0.156374,
"id": "940GZZLUSSQ",
"name": "Sloane Square Underground Station"},
{"lat": 51.51101,
"lon": -0.114256,
"id": "940GZZLUTMP",
"name": "Temple Underground Station"},
{"lat": 51.509975,
"lon": -0.07654,
"id": "940GZZLUTWH",
"name": "Tower Hill Underground Station"},
{"lat": 51.496363,
"lon": -0.143098,
"id": "940GZZLUVIC",
"name": "Victoria Underground Station"},
{"lat": 51.509674,
"lon": -0.224528,
"id": "940GZZLUWLA",
"name": "Wood Lane Underground Station"},
{"lat": 51.501324,
"lon": -0.124857,
"id": "940GZZLUWSM",
"name": "Westminster Underground Station"},
{"lat": 51.521115,
"lon": -0.201063,
"id": "940GZZLUWSP",
"name": "Westbourne Park Underground Station"},
{"lat": 51.503062,
"lon": -0.280462,
"id": "940GZZLUACT",
"name": "Acton Town Underground Station"},
{"lat": 51.515042,
"lon": -0.072378,
"id": "940GZZLUADE",
"name": "Aldgate East Underground Station"},
{"lat": 51.524844,
"lon": -0.011531,
"id": "940GZZLUBBB",
"name": "Bromley-by-Bow Underground Station"},
{"lat": 51.540336,
"lon": 0.127028,
"id": "940GZZLUBEC",
"name": "Becontree Underground Station"},
{"lat": 51.539326,
"lon": 0.081064,
"id": "940GZZLUBKG",
"name": "Barking Underground Station"},
{"lat": 51.490315,
"lon": -0.213425,
"id": "940GZZLUBSC",
"name": "Barons Court Underground Station"},
{"lat": 51.526944,
"lon": -0.025121,
"id": "940GZZLUBWR",
"name": "Bow Road Underground Station"},
{"lat": 51.494632,
"lon": -0.267972,
"id": "940GZZLUCWP",
"name": "Chiswick Park Underground Station"},
{"lat": 51.544101,
"lon": 0.166029,
"id": "940GZZLUDGE",
"name": "Dagenham East Underground Station"},
{"lat": 51.541644,
"lon": 0.147539,
"id": "940GZZLUDGY",
"name": "Dagenham Heathway Underground Station"},
{"lat": 51.510145,
"lon": -0.288265,
"id": "940GZZLUECM",
"name": "Ealing Common Underground Station"},
{"lat": 51.492067,
"lon": -0.193376,
"id": "940GZZLUECT",
"name": "Earl's Court Underground Station"},
{"lat": 51.538953,
"lon": 0.051195,
"id": "940GZZLUEHM",
"name": "East Ham Underground Station"},
{"lat": 51.54978,
"lon": 0.198654,
"id": "940GZZLUEPK",
"name": "Elm Park Underground Station"},
{"lat": 51.459208,
"lon": -0.210998,
"id": "940GZZLUEPY",
"name": "East Putney Underground Station"},
{"lat": 51.480084,
"lon": -0.195419,
"id": "940GZZLUFBY",
"name": "Fulham Broadway Underground Station"},
{"lat": 51.491808,
"lon": -0.275267,
"id": "940GZZLUGBY",
"name": "Gunnersbury Underground Station"},
{"lat": 51.554098,
"lon": 0.219131,
"id": "940GZZLUHCH",
"name": "Hornchurch Underground Station"},
{"lat": 51.492304,
"lon": -0.223619,
"id": "940GZZLUHSD",
"name": "Hammersmith (Dist&Picc Line) Underground Station"},
{"lat": 51.497628,
"lon": -0.210013,
"id": "940GZZLUKOY",
"name": "Kensington (Olympia) Underground Station"},
{"lat": 51.477062,
"lon": -0.285242,
"id": "940GZZLUKWG",
"name": "Kew Gardens Underground Station"},
{"lat": 51.531345,
"lon": 0.01746,
"id": "940GZZLUPLW",
"name": "Plaistow Underground Station"},
{"lat": 51.475281,
"lon": -0.201168,
"id": "940GZZLUPSG",
"name": "Parsons Green Underground Station"},
{"lat": 51.468265,
"lon": -0.208729,
"id": "940GZZLUPYB",
"name": "Putney Bridge Underground Station"},
{"lat": 51.463241,
"lon": -0.301337,
"id": "940GZZLURMD",
"name": "Richmond Underground Station"},
{"lat": 51.494126,
"lon": -0.23588,
"id": "940GZZLURVP",
"name": "Ravenscourt Park Underground Station"},
{"lat": 51.494921,
"lon": -0.245703,
"id": "940GZZLUSFB",
"name": "Stamford Brook Underground Station"},
{"lat": 51.445076,
"lon": -0.2066,
"id": "940GZZLUSFS",
"name": "Southfields Underground Station"},
{"lat": 51.521863,
"lon": -0.046589,
"id": "940GZZLUSGN",
"name": "Stepney Green Underground Station"},
{"lat": 51.495152,
"lon": -0.254554,
"id": "940GZZLUTNG",
"name": "Turnham Green Underground Station"},
{"lat": 51.558565,
"lon": 0.235824,
"id": "940GZZLUUPB",
"name": "Upminster Bridge Underground Station"},
{"lat": 51.535345,
"lon": 0.035272,
"id": "940GZZLUUPK",
"name": "Upton Park Underground Station"},
{"lat": 51.559068,
"lon": 0.250897,
"id": "940GZZLUUPM",
"name": "Upminster Underground Station"},
{"lat": 51.538376,
"lon": 0.101541,
"id": "940GZZLUUPY",
"name": "Upney Underground Station"},
{"lat": 51.487272,
"lon": -0.195597,
"id": "940GZZLUWBN",
"name": "West Brompton Underground Station"},
{"lat": 51.528141,
"lon": 0.005063,
"id": "940GZZLUWHM",
"name": "West Ham Underground Station"},
{"lat": 51.421209,
"lon": -0.206571,
"id": "940GZZLUWIM",
"name": "Wimbledon Underground Station"},
{"lat": 51.434575,
"lon": -0.199717,
"id": "940GZZLUWIP",
"name": "Wimbledon Park Underground Station"},
{"lat": 51.490463,
"lon": -0.206635,
"id": "940GZZLUWKN",
"name": "West Kensington Underground Station"},
{"lat": 51.519522,
"lon": -0.059965,
"id": "940GZZLUWPL",
"name": "Whitechapel Underground Station"},
{"lat": 51.497957,
"lon": -0.063762,
"id": "940GZZLUBMY",
"name": "Bermondsey Underground Station"},
{"lat": 51.513588,
"lon": 0.00833,
"id": "940GZZLUCGT",
"name": "Canning Town Underground Station"},
{"lat": 51.6077,
"lon": -0.294693,
"id": "940GZZLUCPK",
"name": "Canons Park Underground Station"},
{"lat": 51.497949,
"lon": -0.049715,
"id": "940GZZLUCWR",
"name": "Canada Water Underground Station"},
{"lat": 51.503492,
"lon": -0.018239,
"id": "940GZZLUCYF",
"name": "Canary Wharf Underground Station"},
{"lat": 51.551961,
"lon": -0.239066,
"id": "940GZZLUDOH",
"name": "Dollis Hill Underground Station"},
{"lat": 51.54683,
"lon": -0.179842,
"id": "940GZZLUFYR",
"name": "Finchley Road Underground Station"},
{"lat": 51.506951,
"lon": -0.142783,
"id": "940GZZLUGPK",
"name": "Green Park Underground Station"},
{"lat": 51.546809,
"lon": -0.204102,
"id": "940GZZLUKBN",
"name": "Kilburn Underground Station"},
{"lat": 51.584852,
"lon": -0.27879,
"id": "940GZZLUKBY",
"name": "Kingsbury Underground Station"},
{"lat": 51.505725,
"lon": -0.088867,
"id": "940GZZLULNB",
"name": "London Bridge Underground Station"},
{"lat": 51.553992,
"lon": -0.249836,
"id": "940GZZLUNDN",
"name": "Neasden Underground Station"},
{"lat": 51.500474,
"lon": 0.004295,
"id": "940GZZLUNGW",
"name": "North Greenwich Underground Station"},
{"lat": 51.594196,
"lon": -0.286219,
"id": "940GZZLUQBY",
"name": "Queensbury Underground Station"},
{"lat": 51.534527,
"lon": -0.173945,
"id": "940GZZLUSJW",
"name": "St. John's Wood Underground Station"},
{"lat": 51.619838,
"lon": -0.303267,
"id": "940GZZLUSTM",
"name": "Stanmore Underground Station"},
{"lat": 51.543687,
"lon": -0.174891,
"id": "940GZZLUSWC",
"name": "Swiss Cottage Underground Station"},
{"lat": 51.50398,
"lon": -0.104935,
"id": "940GZZLUSWK",
"name": "Southwark Underground Station"},
{"lat": 51.546644,
"lon": -0.191056,
"id": "940GZZLUWHP",
"name": "West Hampstead Underground Station"},
{"lat": 51.549151,
"lon": -0.221535,
"id": "940GZZLUWIG",
"name": "Willesden Green Underground Station"},
{"lat": 51.563204,
"lon": -0.279261,
"id": "940GZZLUWYP",
"name": "Wembley Park Underground Station"},
{"lat": 51.674127,
"lon": -0.607708,
"id": "940GZZLUAMS",
"name": "Amersham Underground Station"},
{"lat": 51.667985,
"lon": -0.560682,
"id": "940GZZLUCAL",
"name": "Chalfont & Latimer Underground Station"},
{"lat": 51.70521,
"lon": -0.611241,
"id": "940GZZLUCSM",
"name": "Chesham Underground Station"},
{"lat": 51.647044,
"lon": -0.441708,
"id": "940GZZLUCXY",
"name": "Croxley Underground Station"},
{"lat": 51.654359,
"lon": -0.518453,
"id": "940GZZLUCYD",
"name": "Chorleywood Underground Station"},
{"lat": 51.576504,
"lon": -0.397376,
"id": "940GZZLUEAE",
"name": "Eastcote Underground Station"},
{"lat": 51.553712,
"lon": -0.449818,
"id": "940GZZLUHGD",
"name": "Hillingdon Underground Station"},
{"lat": 51.579202,
"lon": -0.337226,
"id": "940GZZLUHOH",
"name": "Harrow-on-the-Hill Underground Station"},
{"lat": 51.561989,
"lon": -0.441991,
"id": "940GZZLUICK",
"name": "Ickenham Underground Station"},
{"lat": 51.629844,
"lon": -0.432443,
"id": "940GZZLUMPK",
"name": "Moor Park Underground Station"},
{"lat": 51.58487,
"lon": -0.36241,
"id": "940GZZLUNHA",
"name": "North Harrow Underground Station"},
{"lat": 51.578488,
"lon": -0.318057,
"id": "940GZZLUNKP",
"name": "Northwick Park Underground Station"},
{"lat": 51.611052,
"lon": -0.423818,
"id": "940GZZLUNOW",
"name": "Northwood Underground Station"},
{"lat": 51.60057,
"lon": -0.409453,
"id": "940GZZLUNWH",
"name": "Northwood Hills Underground Station"},
{"lat": 51.5929,
"lon": -0.381164,
"id": "940GZZLUPNR",
"name": "Pinner Underground Station"},
{"lat": 51.571979,
"lon": -0.295107,
"id": "940GZZLUPRD",
"name": "Preston Road Underground Station"},
{"lat": 51.640207,
"lon": -0.473693,
"id": "940GZZLURKW",
"name": "Rickmansworth Underground Station"},
{"lat": 51.5732,
"lon": -0.412963,
"id": "940GZZLURSM",
"name": "Ruislip Manor Underground Station"},
{"lat": 51.571351,
"lon": -0.421887,
"id": "940GZZLURSP",
"name": "Ruislip Underground Station"},
{"lat": 51.575154,
"lon": -0.37113,
"id": "940GZZLURYL",
"name": "Rayners Lane Underground Station"},
{"lat": 51.546563,
"lon": -0.47794,
"id": "940GZZLUUXB",
"name": "Uxbridge Underground Station"},
{"lat": 51.657446,
"lon": -0.41738,
"id": "940GZZLUWAF",
"name": "Watford Underground Station"},
{"lat": 51.579717,
"lon": -0.353401,
"id": "940GZZLUWHW",
"name": "West Harrow Underground Station"},
{"lat": 51.565484,
"lon": -0.134815,
"id": "940GZZLUACY",
"name": "Archway Underground Station"},
{"lat": 51.532801,
"lon": -0.105987,
"id": "940GZZLUAGL",
"name": "Angel Underground Station"},
{"lat": 51.443291,
"lon": -0.152994,
"id": "940GZZLUBLM",
"name": "Balham Underground Station"},
{"lat": 51.501203,
"lon": -0.093365,
"id": "940GZZLUBOR",
"name": "Borough Underground Station"},
{"lat": 51.602781,
"lon": -0.264047,
"id": "940GZZLUBTK",
"name": "Burnt Oak Underground Station"},
{"lat": 51.576656,
"lon": -0.21362,
"id": "940GZZLUBTX",
"name": "Brent Cross Underground Station"},
{"lat": 51.550316,
"lon": -0.164644,
"id": "940GZZLUBZP",
"name": "Belsize Park Underground Station"},
{"lat": 51.544124,
"lon": -0.153384,
"id": "940GZZLUCFM",
"name": "Chalk Farm Underground Station"},
{"lat": 51.595431,
"lon": -0.249918,
"id": "940GZZLUCND",
"name": "Colindale Underground Station"},
{"lat": 51.461745,
"lon": -0.138314,
"id": "940GZZLUCPC",
"name": "Clapham Common Underground Station"},
{"lat": 51.465138,
"lon": -0.130012,
"id": "940GZZLUCPN",
"name": "Clapham North Underground Station"},
{"lat": 51.452657,
"lon": -0.147579,
"id": "940GZZLUCPS",
"name": "Clapham South Underground Station"},
{"lat": 51.418162,
"lon": -0.178084,
"id": "940GZZLUCSD",
"name": "Colliers Wood Underground Station"},
{"lat": 51.539297,
"lon": -0.142735,
"id": "940GZZLUCTN",
"name": "Camden Town Underground Station"},
{"lat": 51.587138,
"lon": -0.165008,
"id": "940GZZLUEFY",
"name": "East Finchley Underground Station"},
{"lat": 51.613652,
"lon": -0.274927,
"id": "940GZZLUEGW",
"name": "Edgware Underground Station"},
{"lat": 51.528349,
"lon": -0.132296,
"id": "940GZZLUEUS",
"name": "Euston Underground Station"},
{"lat": 51.600928,
"lon": -0.192524,
"id": "940GZZLUFYC",
"name": "Finchley Central Underground Station"},
{"lat": 51.520603,
"lon": -0.134357,
"id": "940GZZLUGDG",
"name": "Goodge Street Underground Station"},
{"lat": 51.572265,
"lon": -0.194036,
"id": "940GZZLUGGN",
"name": "Golders Green Underground Station"},
{"lat": 51.65054,
"lon": -0.194295,
"id": "940GZZLUHBT",
"name": "High Barnet Underground Station"},
{"lat": 51.583307,
"lon": -0.226423,
"id": "940GZZLUHCL",
"name": "Hendon Central Underground Station"},
{"lat": 51.577539,
"lon": -0.145853,
"id": "940GZZLUHGT",
"name": "Highgate Underground Station"},
{"lat": 51.556638,
"lon": -0.178484,
"id": "940GZZLUHTD",
"name": "Hampstead Underground Station"},
{"lat": 51.488341,
"lon": -0.105958,
"id": "940GZZLUKNG",
"name": "Kennington Underground Station"},
{"lat": 51.550318,
"lon": -0.140729,
"id": "940GZZLUKSH",
"name": "Kentish Town Underground Station"},
{"lat": 51.51139,
"lon": -0.128421,
"id": "940GZZLULSQ",
"name": "Leicester Square Underground Station"},
{"lat": 51.402144,
"lon": -0.194838,
"id": "940GZZLUMDN",
"name": "Morden Underground Station"},
{"lat": 51.608237,
"lon": -0.209983,
"id": "940GZZLUMHL",
"name": "Mill Hill East Underground Station"},
{"lat": 51.534684,
"lon": -0.138785,
"id": "940GZZLUMTC",
"name": "Mornington Crescent Underground Station"},
{"lat": 51.525869,
"lon": -0.087764,
"id": "940GZZLUODS",
"name": "Old Street Underground Station"},
{"lat": 51.481853,
"lon": -0.112434,
"id": "940GZZLUOVL",
"name": "Oval Underground Station"},
{"lat": 51.472188,
"lon": -0.122639,
"id": "940GZZLUSKW",
"name": "Stockwell Underground Station"},
{"lat": 51.415311,
"lon": -0.192003,
"id": "940GZZLUSWN",
"name": "South Wimbledon Underground Station"},
{"lat": 51.630605,
"lon": -0.179207,
"id": "940GZZLUTAW",
"name": "Totteridge & Whetstone Underground Station"},
{"lat": 51.435681,
"lon": -0.159733,
"id": "940GZZLUTBC",
"name": "Tooting Bec Underground Station"},
{"lat": 51.427633,
"lon": -0.168371,
"id": "940GZZLUTBY",
"name": "Tooting Broadway Underground Station"},
{"lat": 51.556828,
"lon": -0.138429,
"id": "940GZZLUTFP",
"name": "Tufnell Park Underground Station"},
{"lat": 51.609434,
"lon": -0.188359,
"id": "940GZZLUWFN",
"name": "West Finchley Underground Station"},
{"lat": 51.618021,
"lon": -0.185416,
"id": "940GZZLUWOP",
"name": "Woodside Park Underground Station"},
{"lat": 51.524956,
"lon": -0.138317,
"id": "940GZZLUWRR",
"name": "Warren Street Underground Station"},
{"lat": 51.647734,
"lon": -0.132177,
"id": "910GENFCOAK",
"name": "Oakwood Station"},
{"lat": 51.540633,
"lon": -0.29961,
"id": "940GZZLUALP",
"name": "Alperton Underground Station"},
{"lat": 51.616454,
"lon": -0.133058,
"id": "940GZZLUASG",
"name": "Arnos Grove Underground Station"},
{"lat": 51.558661,
"lon": -0.107452,
"id": "940GZZLUASL",
"name": "Arsenal Underground Station"},
{"lat": 51.607042,
"lon": -0.12423,
"id": "940GZZLUBDS",
"name": "Bounds Green Underground Station"},
{"lat": 51.495639,
"lon": -0.324941,
"id": "940GZZLUBOS",
"name": "Boston Manor Underground Station"},
{"lat": 51.548524,
"lon": -0.118489,
"id": "940GZZLUCAR",
"name": "Caledonian Road Underground Station"},
{"lat": 51.513098,
"lon": -0.124431,
"id": "940GZZLUCGN",
"name": "Covent Garden Underground Station"},
{"lat": 51.651519,
"lon": -0.149167,
"id": "940GZZLUCKS",
"name": "Cockfosters Underground Station"},
{"lat": 51.564164,
"lon": -0.106819,
"id": "940GZZLUFPK",
"name": "Finsbury Park Underground Station"},
{"lat": 51.466751,
"lon": -0.423181,
"id": "940GZZLUHNX",
"name": "Hatton Cross Underground Station"},
{"lat": 51.503039,
"lon": -0.152438,
"id": "940GZZLUHPC",
"name": "Hyde Park Corner Underground Station"},
{"lat": 51.458527,
"lon": -0.445762,
"id": "940GZZLUHR4",
"name": "Heathrow Terminal 4 Underground Station"},
{"lat": 51.470056,
"lon": -0.490552,
"id": "940GZZLUHR5",
"name": "Heathrow Terminal 5 Underground Station"},
{"lat": 51.471239,
"lon": -0.452256,
"id": "940GZZLUHRC",
"name": "Heathrow Terminals 1-2-3 Underground Station "},
{"lat": 51.471299,
"lon": -0.366581,
"id": "940GZZLUHWC",
"name": "Hounslow Central Underground Station"},
{"lat": 51.473217,
"lon": -0.356476,
"id": "940GZZLUHWE",
"name": "Hounslow East Underground Station"},
{"lat": 51.473473,
"lon": -0.386533,
"id": "940GZZLUHWT",
"name": "Hounslow West Underground Station"},
{"lat": 51.552702,
"lon": -0.113239,
"id": "940GZZLUHWY",
"name": "Holloway Road Underground Station"},
{"lat": 51.501673,
"lon": -0.160504,
"id": "940GZZLUKNB",
"name": "Knightsbridge Underground Station"},
{"lat": 51.570744,
"lon": -0.096113,
"id": "940GZZLUMRH",
"name": "Manor House Underground Station"},
{"lat": 51.51751,
"lon": -0.288868,
"id": "940GZZLUNEN",
"name": "North Ealing Underground Station"},
{"lat": 51.499324,
"lon": -0.31472,
"id": "940GZZLUNFD",
"name": "Northfields Underground Station"},
{"lat": 51.647734,
"lon": -0.132177,
"id": "940GZZLUOAK",
"name": "Oakwood Underground Station"},
{"lat": 51.481278,
"lon": -0.352226,
"id": "940GZZLUOSY",
"name": "Osterley Underground Station"},
{"lat": 51.527129,
"lon": -0.284341,
"id": "940GZZLUPKR",
"name": "Park Royal Underground Station"},
{"lat": 51.523077,
"lon": -0.124281,
"id": "940GZZLURSQ",
"name": "Russell Square Underground Station"},
{"lat": 51.501008,
"lon": -0.307425,
"id": "940GZZLUSEA",
"name": "South Ealing Underground Station"},
{"lat": 51.632323,
"lon": -0.127811,
"id": "940GZZLUSGT",
"name": "Southgate Underground Station"},
{"lat": 51.564894,
"lon": -0.352494,
"id": "940GZZLUSHH",
"name": "South Harrow Underground Station"},
{"lat": 51.556952,
"lon": -0.336437,
"id": "940GZZLUSUH",
"name": "Sudbury Hill Underground Station"},
{"lat": 51.550821,
"lon": -0.315746,
"id": "940GZZLUSUT",
"name": "Sudbury Town Underground Station"},
{"lat": 51.590279,
"lon": -0.102947,
"id": "940GZZLUTPN",
"name": "Turnpike Lane Underground Station"},
{"lat": 51.597486,
"lon": -0.109881,
"id": "940GZZLUWOG",
"name": "Wood Green Underground Station"},
{"lat": 51.586925,
"lon": -0.041143,
"id": "940GZZLUBLR",
"name": "Blackhorse Road Underground Station"},
{"lat": 51.462621,
"lon": -0.114884,
"id": "940GZZLUBXN",
"name": "Brixton Underground Station"},
{"lat": 51.546355,
"lon": -0.103319,
"id": "940GZZLUHAI",
"name": "Highbury & Islington Underground Station"},
{"lat": 51.489101,
"lon": -0.133757,
"id": "940GZZLUPCO",
"name": "Pimlico Underground Station"},
{"lat": 51.583336,
"lon": -0.072577,
"id": "940GZZLUSVS",
"name": "Seven Sisters Underground Station"},
{"lat": 51.588115,
"lon": -0.060234,
"id": "940GZZLUTMH",
"name": "Tottenham Hale Underground Station"},
{"lat": 51.485747,
"lon": -0.1242,
"id": "940GZZLUVXL",
"name": "Vauxhall Underground Station"},
{"lat": 51.582971,
"lon": -0.019877,
"id": "940GZZLUWWL",
"name": "Walthamstow Central Underground Station"}]